[
  {"id":"IDF-001","name_he":"יוסף כהן","name_en":"Yosef Cohen","rank_he":"סמל","rank_en":"Corporal","unit":"Golani Brigade","unit_branch":"ground","date_of_birth":"1999-03-14","date_of_fall":"2023-10-08","location_name":"Kibbutz Be'eri","coordinates":{"lat":31.3858,"lng":34.5062},"city_of_origin":"Haifa","age_at_fall":24,"conflict":"Swords of Iron","bio_he":"יוסף נולד בחיפה וגדל בצל הכרמל. הוא התגייס לגדוד הגולני בגיל 18 ושירת בנאמנות. נפל בהגנה על קיבוץ בארי.","bio_en":"Yosef was born in Haifa and grew up in the shadow of Mount Carmel. He enlisted in the Golani Brigade at 18 and served faithfully until he fell defending Kibbutz Be'eri."},
  {"id":"IDF-002","name_he":"אבי לוי","name_en":"Avi Levi","rank_he":"רב טוראי","rank_en":"Private First Class","unit":"Paratroopers Brigade","unit_branch":"ground","date_of_birth":"2001-07-22","date_of_fall":"2023-10-09","location_name":"Nahal Oz","coordinates":{"lat":31.4167,"lng":34.4833},"city_of_origin":"Tel Aviv","age_at_fall":22,"conflict":"Swords of Iron"},
  {"id":"IDF-003","name_he":"דניאל מזרחי","name_en":"Daniel Mizrahi","rank_he":"סגן","rank_en":"Lieutenant","unit":"Givati Brigade","unit_branch":"ground","date_of_birth":"1998-11-05","date_of_fall":"2023-10-10","location_name":"Kfar Aza","coordinates":{"lat":31.4667,"lng":34.5167},"city_of_origin":"Jerusalem","age_at_fall":24,"conflict":"Swords of Iron","bio_he":"דניאל היה קצין מבריק שאהב את חייליו כמו אחים. נפל בהגנת כפר עזה.","bio_en":"Daniel was a brilliant officer who loved his soldiers like brothers. He fell defending Kfar Aza."},
  {"id":"IDF-004","name_he":"נועם בן-דוד","name_en":"Noam Ben-David","rank_he":"טוראי","rank_en":"Private","unit":"Armored Corps 401","unit_branch":"ground","date_of_birth":"2002-04-18","date_of_fall":"2023-10-11","location_name":"Gaza City","coordinates":{"lat":31.5000,"lng":34.4667},"city_of_origin":"Beer Sheva","age_at_fall":21,"conflict":"Swords of Iron"},
  {"id":"IDF-005","name_he":"אמיר פרץ","name_en":"Amir Peretz","rank_he":"סמל ראשון","rank_en":"Staff Sergeant","unit":"Sayeret Matkal","unit_branch":"special","date_of_birth":"1997-09-30","date_of_fall":"2023-10-12","location_name":"Gaza Envelope","coordinates":{"lat":31.4500,"lng":34.4900},"city_of_origin":"Netanya","age_at_fall":26,"conflict":"Swords of Iron"},
  {"id":"IDF-006","name_he":"ירון שפירו","name_en":"Yaron Shapiro","rank_he":"רב סרן","rank_en":"Major","unit":"Engineering Corps","unit_branch":"ground","date_of_birth":"1988-02-14","date_of_fall":"2023-10-14","location_name":"Beit Hanoun","coordinates":{"lat":31.5333,"lng":34.5333},"city_of_origin":"Rehovot","age_at_fall":35,"conflict":"Swords of Iron"},
  {"id":"IDF-007","name_he":"תומר גולדברג","name_en":"Tomer Goldberg","rank_he":"סגן משנה","rank_en":"Second Lieutenant","unit":"Nahal Brigade","unit_branch":"ground","date_of_birth":"2000-06-07","date_of_fall":"2023-10-16","location_name":"Gaza City","coordinates":{"lat":31.5200,"lng":34.4500},"city_of_origin":"Rishon LeZion","age_at_fall":23,"conflict":"Swords of Iron"},
  {"id":"IDF-008","name_he":"רון אברהם","name_en":"Ron Abraham","rank_he":"רב טוראי","rank_en":"Private First Class","unit":"Kfir Brigade","unit_branch":"ground","date_of_birth":"2002-12-01","date_of_fall":"2023-10-18","location_name":"Jabaliya","coordinates":{"lat":31.5333,"lng":34.4833},"city_of_origin":"Petah Tikva","age_at_fall":20,"conflict":"Swords of Iron"},
  {"id":"IDF-009","name_he":"שי כץ","name_en":"Shai Katz","rank_he":"סמל","rank_en":"Corporal","unit":"Shayetet 13","unit_branch":"special","date_of_birth":"1999-08-25","date_of_fall":"2023-10-20","location_name":"Gaza Coast","coordinates":{"lat":31.4800,"lng":34.4200},"city_of_origin":"Herzliya","age_at_fall":24,"conflict":"Swords of Iron"},
  {"id":"IDF-010","name_he":"עידו שמיר","name_en":"Ido Shamir","rank_he":"רב סרן","rank_en":"Major","unit":"Air Force","unit_branch":"air","date_of_birth":"1990-03-11","date_of_fall":"2023-10-22","location_name":"Northern Gaza","coordinates":{"lat":31.5500,"lng":34.4700},"city_of_origin":"Ramat Gan","age_at_fall":33,"conflict":"Swords of Iron"},
  {"id":"IDF-011","name_he":"גל ברקוביץ","name_en":"Gal Berkowitz","rank_he":"טוראי","rank_en":"Private","unit":"Golani Brigade","unit_branch":"ground","date_of_birth":"2003-01-30","date_of_fall":"2023-10-24","location_name":"Beit Lahiya","coordinates":{"lat":31.5567,"lng":34.5000},"city_of_origin":"Holon","age_at_fall":20,"conflict":"Swords of Iron"},
  {"id":"IDF-012","name_he":"איתי רוזן","name_en":"Itai Rosen","rank_he":"סגן","rank_en":"Lieutenant","unit":"Armored Corps 188","unit_branch":"ground","date_of_birth":"1999-05-19","date_of_fall":"2023-10-27","location_name":"Gaza City","coordinates":{"lat":31.5100,"lng":34.4600},"city_of_origin":"Ashdod","age_at_fall":24,"conflict":"Swords of Iron"},
  {"id":"IDF-013","name_he":"מיכאל פרידמן","name_en":"Michael Friedman","rank_he":"סמל ראשון","rank_en":"Staff Sergeant","unit":"Paratroopers Brigade","unit_branch":"ground","date_of_birth":"1998-10-03","date_of_fall":"2023-10-29","location_name":"Khan Yunis","coordinates":{"lat":31.3467,"lng":34.3033},"city_of_origin":"Bnei Brak","age_at_fall":25,"conflict":"Swords of Iron"},
  {"id":"IDF-014","name_he":"אורי ביטון","name_en":"Uri Biton","rank_he":"רב טוראי","rank_en":"Private First Class","unit":"Givati Brigade","unit_branch":"ground","date_of_birth":"2001-09-14","date_of_fall":"2023-11-02","location_name":"Beit Hanoun","coordinates":{"lat":31.5350,"lng":34.5300},"city_of_origin":"Dimona","age_at_fall":22,"conflict":"Swords of Iron"},
  {"id":"IDF-015","name_he":"יונתן הרצוג","name_en":"Yonatan Herzl","rank_he":"סמל","rank_en":"Corporal","unit":"Shaldag Unit","unit_branch":"special","date_of_birth":"1999-12-22","date_of_fall":"2023-11-05","location_name":"Northern Gaza","coordinates":{"lat":31.5600,"lng":34.4800},"city_of_origin":"Haifa","age_at_fall":23,"conflict":"Swords of Iron"},
  {"id":"IDF-016","name_he":"בן-ציון נחמן","name_en":"Ben-Zion Nachman","rank_he":"טוראי","rank_en":"Private","unit":"Nahal Brigade","unit_branch":"ground","date_of_birth":"2003-03-08","date_of_fall":"2023-11-08","location_name":"Jabaliya","coordinates":{"lat":31.5320,"lng":34.4840},"city_of_origin":"Jerusalem","age_at_fall":20,"conflict":"Swords of Iron"},
  {"id":"IDF-017","name_he":"ליאור עמר","name_en":"Lior Amar","rank_he":"רב טוראי","rank_en":"Private First Class","unit":"Engineering Corps","unit_branch":"ground","date_of_birth":"2001-11-17","date_of_fall":"2023-11-11","location_name":"Gaza City","coordinates":{"lat":31.5050,"lng":34.4650},"city_of_origin":"Ashkelon","age_at_fall":22,"conflict":"Swords of Iron"},
  {"id":"IDF-018","name_he":"אלון כהן","name_en":"Alon Cohen","rank_he":"סגן","rank_en":"Lieutenant","unit":"Armored Corps 401","unit_branch":"ground","date_of_birth":"1999-07-04","date_of_fall":"2023-11-14","location_name":"Shejaiya","coordinates":{"lat":31.5150,"lng":34.4950},"city_of_origin":"Tel Aviv","age_at_fall":24,"conflict":"Swords of Iron"},
  {"id":"IDF-019","name_he":"נדב ברנשטיין","name_en":"Nadav Bernstein","rank_he":"סמל","rank_en":"Corporal","unit":"Duvdevan Unit","unit_branch":"special","date_of_birth":"2000-02-28","date_of_fall":"2023-11-18","location_name":"Jenin","coordinates":{"lat":32.4597,"lng":35.2956},"city_of_origin":"Kfar Saba","age_at_fall":23,"conflict":"Swords of Iron"},
  {"id":"IDF-020","name_he":"טל גרינברג","name_en":"Tal Greenberg","rank_he":"רב סרן","rank_en":"Major","unit":"Golani Brigade","unit_branch":"ground","date_of_birth":"1987-08-16","date_of_fall":"2023-11-22","location_name":"Beit Lahiya","coordinates":{"lat":31.5580,"lng":34.5020},"city_of_origin":"Tiberias","age_at_fall":36,"conflict":"Swords of Iron"},
  {"id":"IDF-021","name_he":"שמעון אוחיון","name_en":"Shimon Ohayoun","rank_he":"רב טוראי","rank_en":"Private First Class","unit":"Kfir Brigade","unit_branch":"ground","date_of_birth":"2002-06-10","date_of_fall":"2023-11-25","location_name":"Khan Yunis","coordinates":{"lat":31.3500,"lng":34.3100},"city_of_origin":"Netanya","age_at_fall":21,"conflict":"Swords of Iron"},
  {"id":"IDF-022","name_he":"עמיחי לבנה","name_en":"Amichai Livne","rank_he":"סגן משנה","rank_en":"Second Lieutenant","unit":"Paratroopers Brigade","unit_branch":"ground","date_of_birth":"2000-10-31","date_of_fall":"2023-11-28","location_name":"Gaza City","coordinates":{"lat":31.5000,"lng":34.4700},"city_of_origin":"Rehovot","age_at_fall":23,"conflict":"Swords of Iron"},
  {"id":"IDF-023","name_he":"ניר שלום","name_en":"Nir Shalom","rank_he":"סמל ראשון","rank_en":"Staff Sergeant","unit":"Navy Commando","unit_branch":"navy","date_of_birth":"1998-04-05","date_of_fall":"2023-12-02","location_name":"Gaza Coast","coordinates":{"lat":31.4600,"lng":34.4100},"city_of_origin":"Eilat","age_at_fall":25,"conflict":"Swords of Iron"},
  {"id":"IDF-024","name_he":"יאיר אשכנזי","name_en":"Yair Ashkenazi","rank_he":"טוראי","rank_en":"Private","unit":"Givati Brigade","unit_branch":"ground","date_of_birth":"2003-09-12","date_of_fall":"2023-12-05","location_name":"Khan Yunis","coordinates":{"lat":31.3420,"lng":34.3050},"city_of_origin":"Rishon LeZion","age_at_fall":20,"conflict":"Swords of Iron"},
  {"id":"IDF-025","name_he":"אריאל בוחבוט","name_en":"Ariel Bouhbot","rank_he":"סמל","rank_en":"Corporal","unit":"Armored Corps 188","unit_branch":"ground","date_of_birth":"2000-01-20","date_of_fall":"2023-12-08","location_name":"Shejaiya","coordinates":{"lat":31.5170,"lng":34.4980},"city_of_origin":"Beer Sheva","age_at_fall":23,"conflict":"Swords of Iron"},
  {"id":"IDF-026","name_he":"ראובן שוסטר","name_en":"Reuven Schuster","rank_he":"רב טוראי","rank_en":"Private First Class","unit":"Engineering Corps","unit_branch":"ground","date_of_birth":"2001-05-07","date_of_fall":"2023-12-11","location_name":"Northern Gaza","coordinates":{"lat":31.5620,"lng":34.4750},"city_of_origin":"Jerusalem","age_at_fall":22,"conflict":"Swords of Iron"},
  {"id":"IDF-027","name_he":"שחר אוזן","name_en":"Shahar Uzan","rank_he":"סגן","rank_en":"Lieutenant","unit":"Sayeret Matkal","unit_branch":"special","date_of_birth":"1998-07-29","date_of_fall":"2023-12-14","location_name":"Central Gaza","coordinates":{"lat":31.4200,"lng":34.3800},"city_of_origin":"Petah Tikva","age_at_fall":25,"conflict":"Swords of Iron"},
  {"id":"IDF-028","name_he":"עמוס רובין","name_en":"Amos Rubin","rank_he":"רב סרן","rank_en":"Major","unit":"Golani Brigade","unit_branch":"ground","date_of_birth":"1989-11-02","date_of_fall":"2023-12-17","location_name":"Beit Hanoun","coordinates":{"lat":31.5380,"lng":34.5280},"city_of_origin":"Haifa","age_at_fall":34,"conflict":"Swords of Iron"},
  {"id":"IDF-029","name_he":"אסף מלכה","name_en":"Assaf Malka","rank_he":"סמל","rank_en":"Corporal","unit":"Nahal Brigade","unit_branch":"ground","date_of_birth":"2001-03-16","date_of_fall":"2023-12-20","location_name":"Khan Yunis","coordinates":{"lat":31.3480,"lng":34.3020},"city_of_origin":"Bat Yam","age_at_fall":22,"conflict":"Swords of Iron"},
  {"id":"IDF-030","name_he":"ירמיהו דהן","name_en":"Yirmiyahu Dahan","rank_he":"טוראי","rank_en":"Private","unit":"Kfir Brigade","unit_branch":"ground","date_of_birth":"2004-02-09","date_of_fall":"2023-12-23","location_name":"Jabaliya","coordinates":{"lat":31.5310,"lng":34.4820},"city_of_origin":"Modiin","age_at_fall":19,"conflict":"Swords of Iron"},
  {"id":"IDF-031","name_he":"אביגדור סעדון","name_en":"Avigdor Saadoun","rank_he":"רב טוראי","rank_en":"Private First Class","unit":"Paratroopers Brigade","unit_branch":"ground","date_of_birth":"2001-08-23","date_of_fall":"2023-12-26","location_name":"Gaza City","coordinates":{"lat":31.5080,"lng":34.4620},"city_of_origin":"Ashdod","age_at_fall":22,"conflict":"Swords of Iron"},
  {"id":"IDF-032","name_he":"מוטי חיון","name_en":"Moti Hayoun","rank_he":"סמל ראשון","rank_en":"Staff Sergeant","unit":"Attack Helicopter Squadron","unit_branch":"air","date_of_birth":"1997-06-14","date_of_fall":"2023-12-28","location_name":"Southern Gaza","coordinates":{"lat":31.2800,"lng":34.2600},"city_of_origin":"Tel Aviv","age_at_fall":26,"conflict":"Swords of Iron"},
  {"id":"IDF-033","name_he":"ג'ק פינטו","name_en":"Jack Pinto","rank_he":"סמל","rank_en":"Corporal","unit":"Givati Brigade","unit_branch":"ground","date_of_birth":"2000-12-04","date_of_fall":"2024-01-03","location_name":"Khan Yunis","coordinates":{"lat":31.3400,"lng":34.3000},"city_of_origin":"Rishon LeZion","age_at_fall":23,"conflict":"Swords of Iron"},
  {"id":"IDF-034","name_he":"ברק שמואל","name_en":"Barak Shmuel","rank_he":"סגן","rank_en":"Lieutenant","unit":"Armored Corps 401","unit_branch":"ground","date_of_birth":"1999-04-28","date_of_fall":"2024-01-06","location_name":"Central Gaza","coordinates":{"lat":31.4100,"lng":34.3700},"city_of_origin":"Jerusalem","age_at_fall":24,"conflict":"Swords of Iron"},
  {"id":"IDF-035","name_he":"ורד אלון","name_en":"Vered Alon","rank_he":"רבת טוראי","rank_en":"Private First Class","unit":"Engineering Corps","unit_branch":"ground","date_of_birth":"2002-10-15","date_of_fall":"2024-01-09","location_name":"Rafah","coordinates":{"lat":31.2972,"lng":34.2528},"city_of_origin":"Netanya","age_at_fall":21,"conflict":"Swords of Iron","bio_he":"ורד הייתה חיילת אמיצה ומסורה ששירתה בחיל ההנדסה. היא נפלה ברפיח בגיל 21, במלאכת שמירה על חבריה לנשק. זכרה יהיה ברוך לעד.","bio_en":"Vered was a brave and devoted soldier who served in the Engineering Corps. She fell at Rafah at the age of 21, protecting her fellow soldiers. May her memory be a blessing."},
  {"id":"IDF-036","name_he":"אמנון ישראלי","name_en":"Amnon Israeli","rank_he":"סמל","rank_en":"Corporal","unit":"Golani Brigade","unit_branch":"ground","date_of_birth":"2000-08-11","date_of_fall":"2024-01-12","location_name":"Beit Lahiya","coordinates":{"lat":31.5560,"lng":34.5000},"city_of_origin":"Haifa","age_at_fall":23,"conflict":"Swords of Iron"},
  {"id":"IDF-037","name_he":"נחמיה ביג'ה","name_en":"Nechemya Beige","rank_he":"טוראי","rank_en":"Private","unit":"Nahal Brigade","unit_branch":"ground","date_of_birth":"2003-06-30","date_of_fall":"2024-01-15","location_name":"Khan Yunis","coordinates":{"lat":31.3450,"lng":34.3080},"city_of_origin":"Ramat Gan","age_at_fall":20,"conflict":"Swords of Iron"},
  {"id":"IDF-038","name_he":"גבריאל אסרף","name_en":"Gabriel Assraf","rank_he":"סמל ראשון","rank_en":"Staff Sergeant","unit":"Shayetet 13","unit_branch":"special","date_of_birth":"1997-02-17","date_of_fall":"2024-01-18","location_name":"Gaza Coast","coordinates":{"lat":31.4700,"lng":34.4100},"city_of_origin":"Tel Aviv","age_at_fall":27,"conflict":"Swords of Iron"},
  {"id":"IDF-039","name_he":"דוד פלד","name_en":"David Feld","rank_he":"רב סרן","rank_en":"Major","unit":"Armored Corps 188","unit_branch":"ground","date_of_birth":"1986-09-22","date_of_fall":"2024-01-21","location_name":"Shejaiya","coordinates":{"lat":31.5180,"lng":34.4960},"city_of_origin":"Beer Sheva","age_at_fall":37,"conflict":"Swords of Iron"},
  {"id":"IDF-040","name_he":"יצחק מנחם","name_en":"Yitzchak Menachem","rank_he":"סמל","rank_en":"Corporal","unit":"Kfir Brigade","unit_branch":"ground","date_of_birth":"2001-01-06","date_of_fall":"2024-01-24","location_name":"Central Gaza","coordinates":{"lat":31.4300,"lng":34.3900},"city_of_origin":"Bnei Brak","age_at_fall":23,"conflict":"Swords of Iron"},
  {"id":"IDF-041","name_he":"שלמה וינשטיין","name_en":"Shlomo Weinstein","rank_he":"רב טוראי","rank_en":"Private First Class","unit":"Paratroopers Brigade","unit_branch":"ground","date_of_birth":"2002-04-03","date_of_fall":"2024-01-27","location_name":"Rafah","coordinates":{"lat":31.2900,"lng":34.2600},"city_of_origin":"Modiin","age_at_fall":21,"conflict":"Swords of Iron"},
  {"id":"IDF-042","name_he":"אורן קדוש","name_en":"Oren Kadosh","rank_he":"סגן משנה","rank_en":"Second Lieutenant","unit":"Givati Brigade","unit_branch":"ground","date_of_birth":"2000-07-19","date_of_fall":"2024-01-30","location_name":"Khan Yunis","coordinates":{"lat":31.3520,"lng":34.3060},"city_of_origin":"Ashkelon","age_at_fall":23,"conflict":"Swords of Iron"},
  {"id":"IDF-043","name_he":"פנחס שור","name_en":"Pinchas Shor","rank_he":"סמל","rank_en":"Corporal","unit":"Engineering Corps","unit_branch":"ground","date_of_birth":"2001-11-25","date_of_fall":"2024-02-04","location_name":"Northern Gaza","coordinates":{"lat":31.5700,"lng":34.4900},"city_of_origin":"Haifa","age_at_fall":22,"conflict":"Swords of Iron"},
  {"id":"IDF-044","name_he":"מיכל חסידים","name_en":"Michal Chasidim","rank_he":"רבת טוראי","rank_en":"Private First Class","unit":"Golani Brigade","unit_branch":"ground","date_of_birth":"2002-02-14","date_of_fall":"2024-02-07","location_name":"Beit Hanoun","coordinates":{"lat":31.5340,"lng":34.5310},"city_of_origin":"Jerusalem","age_at_fall":22,"conflict":"Swords of Iron","bio_he":"מיכל שירתה בגאווה ובנאמנות בגדוד הגולני. היא נפלה בבית חנון בגיל 22, לוחמת עד הרגע האחרון. זכרה יהיה ברוך לעד.","bio_en":"Michal served with pride and faithfulness in the Golani Brigade. She fell at Beit Hanoun at the age of 22, fighting to the last moment. May her memory be a blessing."},
  {"id":"IDF-045","name_he":"אהרון סבאג","name_en":"Aharon Sebag","rank_he":"סמל ראשון","rank_en":"Staff Sergeant","unit":"Sayeret Matkal","unit_branch":"special","date_of_birth":"1996-05-08","date_of_fall":"2024-02-10","location_name":"Central Gaza","coordinates":{"lat":31.4150,"lng":34.3750},"city_of_origin":"Petah Tikva","age_at_fall":27,"conflict":"Swords of Iron"},
  {"id":"IDF-046","name_he":"נתנאל לוינסון","name_en":"Nathaniel Levinson","rank_he":"סגן","rank_en":"Lieutenant","unit":"Nahal Brigade","unit_branch":"ground","date_of_birth":"1999-09-01","date_of_fall":"2024-02-13","location_name":"Rafah","coordinates":{"lat":31.2850,"lng":34.2550},"city_of_origin":"Tel Aviv","age_at_fall":24,"conflict":"Swords of Iron"},
  {"id":"IDF-047","name_he":"ינאי שרון","name_en":"Yanai Sharon","rank_he":"טוראי","rank_en":"Private","unit":"Kfir Brigade","unit_branch":"ground","date_of_birth":"2004-03-27","date_of_fall":"2024-02-16","location_name":"Jabaliya","coordinates":{"lat":31.5300,"lng":34.4800},"city_of_origin":"Rehovot","age_at_fall":19,"conflict":"Swords of Iron"},
  {"id":"IDF-048","name_he":"אביב מוסרי","name_en":"Aviv Musseri","rank_he":"סמל","rank_en":"Corporal","unit":"UAV Squadron","unit_branch":"air","date_of_birth":"2000-11-11","date_of_fall":"2024-02-19","location_name":"Gaza Strip","coordinates":{"lat":31.4000,"lng":34.3500},"city_of_origin":"Ramat Gan","age_at_fall":23,"conflict":"Swords of Iron"},
  {"id":"IDF-049","name_he":"שי מנחם","name_en":"Shai Menachem","rank_he":"רב טוראי","rank_en":"Private First Class","unit":"Armored Corps 401","unit_branch":"ground","date_of_birth":"2002-08-06","date_of_fall":"2024-02-22","location_name":"Khan Yunis","coordinates":{"lat":31.3380,"lng":34.2990},"city_of_origin":"Netanya","age_at_fall":21,"conflict":"Swords of Iron"},
  {"id":"IDF-050","name_he":"עזרא חדד","name_en":"Ezra Hadad","rank_he":"רב סרן","rank_en":"Major","unit":"Paratroopers Brigade","unit_branch":"ground","date_of_birth":"1988-06-20","date_of_fall":"2024-02-25","location_name":"Rafah","coordinates":{"lat":31.2780,"lng":34.2480},"city_of_origin":"Beer Sheva","age_at_fall":35,"conflict":"Swords of Iron"},
  {"id":"IDF-051","name_he":"חגי ולנטין","name_en":"Hagai Valentin","rank_he":"סמל","rank_en":"Corporal","unit":"Golani Brigade","unit_branch":"ground","date_of_birth":"2001-04-13","date_of_fall":"2024-03-01","location_name":"Central Gaza","coordinates":{"lat":31.4250,"lng":34.3900},"city_of_origin":"Holon","age_at_fall":22,"conflict":"Swords of Iron"},
  {"id":"IDF-052","name_he":"מרדכי זיו","name_en":"Mordechai Ziv","rank_he":"סמל ראשון","rank_en":"Staff Sergeant","unit":"Givati Brigade","unit_branch":"ground","date_of_birth":"1998-12-18","date_of_fall":"2024-03-05","location_name":"Khan Yunis","coordinates":{"lat":31.3440,"lng":34.3040},"city_of_origin":"Rishon LeZion","age_at_fall":25,"conflict":"Swords of Iron"},
  {"id":"IDF-053","name_he":"אליהו חמיד","name_en":"Eliyahu Hamid","rank_he":"טוראי","rank_en":"Private","unit":"Engineering Corps","unit_branch":"ground","date_of_birth":"2003-10-05","date_of_fall":"2024-03-08","location_name":"Rafah","coordinates":{"lat":31.2920,"lng":34.2580},"city_of_origin":"Jerusalem","age_at_fall":20,"conflict":"Swords of Iron"},
  {"id":"IDF-054","name_he":"רפאל אביטן","name_en":"Rafael Avitan","rank_he":"סגן","rank_en":"Lieutenant","unit":"Armored Corps 188","unit_branch":"ground","date_of_birth":"1999-01-24","date_of_fall":"2024-03-12","location_name":"Shejaiya","coordinates":{"lat":31.5160,"lng":34.4970},"city_of_origin":"Ashdod","age_at_fall":25,"conflict":"Swords of Iron"},
  {"id":"IDF-055","name_he":"צביקה קפלן","name_en":"Tzvi Kaplan","rank_he":"רב טוראי","rank_en":"Private First Class","unit":"Nahal Brigade","unit_branch":"ground","date_of_birth":"2002-07-31","date_of_fall":"2024-03-15","location_name":"Northern Gaza","coordinates":{"lat":31.5650,"lng":34.4850},"city_of_origin":"Petah Tikva","age_at_fall":21,"conflict":"Swords of Iron"},
  {"id":"IDF-056","name_he":"עמיר הדר","name_en":"Amir Hadar","rank_he":"סמל","rank_en":"Corporal","unit":"Duvdevan Unit","unit_branch":"special","date_of_birth":"2000-05-16","date_of_fall":"2024-03-18","location_name":"Jenin","coordinates":{"lat":32.4600,"lng":35.2980},"city_of_origin":"Kfar Saba","age_at_fall":23,"conflict":"Swords of Iron"},
  {"id":"IDF-057","name_he":"בנימין גינצבורג","name_en":"Binyamin Ginzburg","rank_he":"סמל ראשון","rank_en":"Staff Sergeant","unit":"Kfir Brigade","unit_branch":"ground","date_of_birth":"1997-08-07","date_of_fall":"2024-03-21","location_name":"Central Gaza","coordinates":{"lat":31.4050,"lng":34.3650},"city_of_origin":"Tel Aviv","age_at_fall":26,"conflict":"Swords of Iron"},
  {"id":"IDF-058","name_he":"יחיאל ניסים","name_en":"Yechiel Nissim","rank_he":"רב סרן","rank_en":"Major","unit":"Air Force","unit_branch":"air","date_of_birth":"1991-03-04","date_of_fall":"2024-03-24","location_name":"Southern Gaza","coordinates":{"lat":31.2700,"lng":34.2400},"city_of_origin":"Haifa","age_at_fall":33,"conflict":"Swords of Iron"},
  {"id":"IDF-059","name_he":"לביא גל","name_en":"Lavie Gal","rank_he":"סגן משנה","rank_en":"Second Lieutenant","unit":"Paratroopers Brigade","unit_branch":"ground","date_of_birth":"2001-06-21","date_of_fall":"2024-03-27","location_name":"Rafah","coordinates":{"lat":31.2860,"lng":34.2520},"city_of_origin":"Rehovot","age_at_fall":22,"conflict":"Swords of Iron"},
  {"id":"IDF-060","name_he":"אלדד חיים","name_en":"Eldad Haim","rank_he":"טוראי","rank_en":"Private","unit":"Golani Brigade","unit_branch":"ground","date_of_birth":"2003-12-10","date_of_fall":"2024-04-01","location_name":"Khan Yunis","coordinates":{"lat":31.3490,"lng":34.3110},"city_of_origin":"Modiin","age_at_fall":20,"conflict":"Swords of Iron"},
  {"id":"IDF-061","name_he":"שמואל ברק","name_en":"Shmuel Barak","rank_he":"סמל","rank_en":"Corporal","unit":"Givati Brigade","unit_branch":"ground","date_of_birth":"2000-09-17","date_of_fall":"2024-04-04","location_name":"Central Gaza","coordinates":{"lat":31.4350,"lng":34.4000},"city_of_origin":"Beer Sheva","age_at_fall":23,"conflict":"Swords of Iron"},
  {"id":"IDF-062","name_he":"דור אפשטיין","name_en":"Dor Epstein","rank_he":"רב טוראי","rank_en":"Private First Class","unit":"Engineering Corps","unit_branch":"ground","date_of_birth":"2002-03-25","date_of_fall":"2024-04-07","location_name":"Rafah","coordinates":{"lat":31.2950,"lng":34.2600},"city_of_origin":"Netanya","age_at_fall":22,"conflict":"Swords of Iron"},
  {"id":"IDF-063","name_he":"כרמל בכר","name_en":"Carmel Bachar","rank_he":"סמל ראשון","rank_en":"Staff Sergeant","unit":"INS Flotilla 13","unit_branch":"navy","date_of_birth":"1998-10-29","date_of_fall":"2024-04-10","location_name":"Gaza Coast","coordinates":{"lat":31.4900,"lng":34.4050},"city_of_origin":"Eilat","age_at_fall":25,"conflict":"Swords of Iron"},
  {"id":"IDF-064","name_he":"עופר בן-לולו","name_en":"Ofer Ben-Lulu","rank_he":"סמל","rank_en":"Corporal","unit":"Armored Corps 401","unit_branch":"ground","date_of_birth":"2001-07-13","date_of_fall":"2024-04-14","location_name":"Shejaiya","coordinates":{"lat":31.5200,"lng":34.5000},"city_of_origin":"Holon","age_at_fall":22,"conflict":"Swords of Iron"},
  {"id":"IDF-065","name_he":"נועם רוט","name_en":"Noam Roth","rank_he":"סגן","rank_en":"Lieutenant","unit":"Nahal Brigade","unit_branch":"ground","date_of_birth":"1999-02-08","date_of_fall":"2024-04-17","location_name":"Northern Gaza","coordinates":{"lat":31.5750,"lng":34.4950},"city_of_origin":"Jerusalem","age_at_fall":25,"conflict":"Swords of Iron"},
  {"id":"IDF-066","name_he":"אמנון בוגנים","name_en":"Amnon Bugnim","rank_he":"רב טוראי","rank_en":"Private First Class","unit":"Kfir Brigade","unit_branch":"ground","date_of_birth":"2002-11-20","date_of_fall":"2024-04-20","location_name":"Khan Yunis","coordinates":{"lat":31.3510,"lng":34.3070},"city_of_origin":"Rishon LeZion","age_at_fall":21,"conflict":"Swords of Iron"},
  {"id":"IDF-067","name_he":"שי פנחסי","name_en":"Shai Pinhasi","rank_he":"רב סרן","rank_en":"Major","unit":"Sayeret Matkal","unit_branch":"special","date_of_birth":"1985-04-01","date_of_fall":"2024-04-23","location_name":"Central Gaza","coordinates":{"lat":31.4200,"lng":34.3800},"city_of_origin":"Tel Aviv","age_at_fall":39,"conflict":"Swords of Iron"},
  {"id":"IDF-068","name_he":"גיל רייכמן","name_en":"Gil Reichman","rank_he":"סמל","rank_en":"Corporal","unit":"Paratroopers Brigade","unit_branch":"ground","date_of_birth":"2001-02-06","date_of_fall":"2024-04-27","location_name":"Rafah","coordinates":{"lat":31.2800,"lng":34.2500},"city_of_origin":"Ramat Gan","age_at_fall":23,"conflict":"Swords of Iron"},
  {"id":"IDF-069","name_he":"אלכסנדר פישר","name_en":"Alexander Fisher","rank_he":"טוראי","rank_en":"Private","unit":"Golani Brigade","unit_branch":"ground","date_of_birth":"2003-08-14","date_of_fall":"2024-04-30","location_name":"Beit Hanoun","coordinates":{"lat":31.5360,"lng":34.5290},"city_of_origin":"Haifa","age_at_fall":20,"conflict":"Swords of Iron"},
  {"id":"IDF-070","name_he":"יונה גדסי","name_en":"Yona Gedasi","rank_he":"רב טוראי","rank_en":"Private First Class","unit":"Givati Brigade","unit_branch":"ground","date_of_birth":"2002-05-22","date_of_fall":"2024-05-04","location_name":"Central Gaza","coordinates":{"lat":31.4080,"lng":34.3680},"city_of_origin":"Ashkelon","age_at_fall":22,"conflict":"Swords of Iron"},
  {"id":"IDF-071","name_he":"שרגא הורביץ","name_en":"Shraga Horowitz","rank_he":"סמל ראשון","rank_en":"Staff Sergeant","unit":"Engineering Corps","unit_branch":"ground","date_of_birth":"1997-12-11","date_of_fall":"2024-05-07","location_name":"Rafah","coordinates":{"lat":31.2880,"lng":34.2550},"city_of_origin":"Petah Tikva","age_at_fall":26,"conflict":"Swords of Iron"},
  {"id":"IDF-072","name_he":"מנחם גרוס","name_en":"Menachem Gross","rank_he":"סגן משנה","rank_en":"Second Lieutenant","unit":"Armored Corps 188","unit_branch":"ground","date_of_birth":"2000-04-28","date_of_fall":"2024-05-10","location_name":"Khan Yunis","coordinates":{"lat":31.3430,"lng":34.3010},"city_of_origin":"Jerusalem","age_at_fall":24,"conflict":"Swords of Iron"},
  {"id":"IDF-073","name_he":"ניסים בן-חמו","name_en":"Nissim Ben-Hamo","rank_he":"סמל","rank_en":"Corporal","unit":"Nahal Brigade","unit_branch":"ground","date_of_birth":"2001-10-03","date_of_fall":"2024-05-14","location_name":"Northern Gaza","coordinates":{"lat":31.5800,"lng":34.5000},"city_of_origin":"Beer Sheva","age_at_fall":22,"conflict":"Swords of Iron"},
  {"id":"IDF-074","name_he":"אבשלום כהן","name_en":"Avshalom Cohen","rank_he":"רב טוראי","rank_en":"Private First Class","unit":"Shaldag Unit","unit_branch":"special","date_of_birth":"2000-01-16","date_of_fall":"2024-05-18","location_name":"Southern Gaza","coordinates":{"lat":31.2600,"lng":34.2300},"city_of_origin":"Modiin","age_at_fall":24,"conflict":"Swords of Iron"},
  {"id":"IDF-075","name_he":"ראם גולן","name_en":"Ram Golan","rank_he":"סגן","rank_en":"Lieutenant","unit":"Kfir Brigade","unit_branch":"ground","date_of_birth":"1999-06-24","date_of_fall":"2024-05-22","location_name":"Rafah","coordinates":{"lat":31.2830,"lng":34.2490},"city_of_origin":"Tel Aviv","age_at_fall":24,"conflict":"Swords of Iron"},
  {"id":"IDF-076","name_he":"שניאור בלומנטל","name_en":"Shneur Blumenthal","rank_he":"רב סרן","rank_en":"Major","unit":"Paratroopers Brigade","unit_branch":"ground","date_of_birth":"1990-02-08","date_of_fall":"2024-05-25","location_name":"Central Gaza","coordinates":{"lat":31.4280,"lng":34.3960},"city_of_origin":"Bnei Brak","age_at_fall":34,"conflict":"Swords of Iron"},
  {"id":"IDF-077","name_he":"יאיר אמדי","name_en":"Yair Amadi","rank_he":"סמל","rank_en":"Corporal","unit":"Golani Brigade","unit_branch":"ground","date_of_birth":"2001-09-09","date_of_fall":"2024-05-28","location_name":"Khan Yunis","coordinates":{"lat":31.3460,"lng":34.3050},"city_of_origin":"Netanya","age_at_fall":22,"conflict":"Swords of Iron"},
  {"id":"IDF-078","name_he":"בועז שאלתיאל","name_en":"Boaz Shalti'el","rank_he":"טוראי","rank_en":"Private","unit":"Givati Brigade","unit_branch":"ground","date_of_birth":"2004-04-14","date_of_fall":"2024-06-03","location_name":"Rafah","coordinates":{"lat":31.2910,"lng":34.2570},"city_of_origin":"Haifa","age_at_fall":20,"conflict":"Swords of Iron"},
  {"id":"IDF-079","name_he":"יצחק ברוך","name_en":"Yitzchak Baruch","rank_he":"רב טוראי","rank_en":"Private First Class","unit":"Engineering Corps","unit_branch":"ground","date_of_birth":"2002-07-02","date_of_fall":"2024-06-07","location_name":"Shejaiya","coordinates":{"lat":31.5140,"lng":34.4950},"city_of_origin":"Jerusalem","age_at_fall":21,"conflict":"Swords of Iron"},
  {"id":"IDF-080","name_he":"גדעון שמש","name_en":"Gideon Shemesh","rank_he":"סמל ראשון","rank_en":"Staff Sergeant","unit":"Navy Commando","unit_branch":"navy","date_of_birth":"1997-11-18","date_of_fall":"2024-06-11","location_name":"Gaza Coast","coordinates":{"lat":31.4650,"lng":34.4080},"city_of_origin":"Tel Aviv","age_at_fall":26,"conflict":"Swords of Iron"},
  {"id":"IDF-081","name_he":"אמיר מנשה","name_en":"Amir Menashe","rank_he":"סגן","rank_en":"Lieutenant","unit":"Armored Corps 401","unit_branch":"ground","date_of_birth":"1999-03-27","date_of_fall":"2024-06-15","location_name":"Northern Gaza","coordinates":{"lat":31.5680,"lng":34.4870},"city_of_origin":"Rehovot","age_at_fall":25,"conflict":"Swords of Iron"},
  {"id":"IDF-082","name_he":"חיים אוהבי","name_en":"Chaim Ohavi","rank_he":"סמל","rank_en":"Corporal","unit":"Nahal Brigade","unit_branch":"ground","date_of_birth":"2001-06-05","date_of_fall":"2024-06-19","location_name":"Rafah","coordinates":{"lat":31.2870,"lng":34.2530},"city_of_origin":"Ashdod","age_at_fall":23,"conflict":"Swords of Iron"},
  {"id":"IDF-083","name_he":"מאיר דיין","name_en":"Meir Dayan","rank_he":"רב טוראי","rank_en":"Private First Class","unit":"Kfir Brigade","unit_branch":"ground","date_of_birth":"2002-09-13","date_of_fall":"2024-06-23","location_name":"Khan Yunis","coordinates":{"lat":31.3550,"lng":34.3120},"city_of_origin":"Beer Sheva","age_at_fall":21,"conflict":"Swords of Iron"},
  {"id":"IDF-084","name_he":"אפרים טוביה","name_en":"Efraim Tuvya","rank_he":"סמל ראשון","rank_en":"Staff Sergeant","unit":"Golani Brigade","unit_branch":"ground","date_of_birth":"1998-08-29","date_of_fall":"2024-06-27","location_name":"Central Gaza","coordinates":{"lat":31.4120,"lng":34.3720},"city_of_origin":"Petah Tikva","age_at_fall":25,"conflict":"Swords of Iron"},
  {"id":"IDF-085","name_he":"נחום גרינפלד","name_en":"Nachum Greenfeld","rank_he":"טוראי","rank_en":"Private","unit":"Paratroopers Brigade","unit_branch":"ground","date_of_birth":"2004-01-20","date_of_fall":"2024-07-02","location_name":"Rafah","coordinates":{"lat":31.2840,"lng":34.2510},"city_of_origin":"Ramat Gan","age_at_fall":20,"conflict":"Swords of Iron"},
  {"id":"IDF-086","name_he":"יונתן יקיר","name_en":"Yonatan Yakir","rank_he":"סגן משנה","rank_en":"Second Lieutenant","unit":"Givati Brigade","unit_branch":"ground","date_of_birth":"2000-12-27","date_of_fall":"2024-07-06","location_name":"Northern Gaza","coordinates":{"lat":31.5720,"lng":34.4920},"city_of_origin":"Holon","age_at_fall":23,"conflict":"Swords of Iron"},
  {"id":"IDF-087","name_he":"עדי ברדה","name_en":"Adi Barda","rank_he":"רב טוראי","rank_en":"Private First Class","unit":"Engineering Corps","unit_branch":"ground","date_of_birth":"2002-04-16","date_of_fall":"2024-07-10","location_name":"Khan Yunis","coordinates":{"lat":31.3470,"lng":34.3060},"city_of_origin":"Jerusalem","age_at_fall":22,"conflict":"Swords of Iron"},
  {"id":"IDF-088","name_he":"צחי גנדלמן","name_en":"Tzachi Gandelman","rank_he":"סמל","rank_en":"Corporal","unit":"Armored Corps 188","unit_branch":"ground","date_of_birth":"2001-10-22","date_of_fall":"2024-07-15","location_name":"Shejaiya","coordinates":{"lat":31.5210,"lng":34.4990},"city_of_origin":"Rishon LeZion","age_at_fall":22,"conflict":"Swords of Iron"},
  {"id":"IDF-089","name_he":"לירן אלגרבלי","name_en":"Liran Elgrably","rank_he":"סמל ראשון","rank_en":"Staff Sergeant","unit":"Duvdevan Unit","unit_branch":"special","date_of_birth":"1997-06-03","date_of_fall":"2024-07-19","location_name":"Tulkarm","coordinates":{"lat":32.3106,"lng":35.0285},"city_of_origin":"Netanya","age_at_fall":27,"conflict":"Swords of Iron"},
  {"id":"IDF-090","name_he":"נועם כספי","name_en":"Noam Kaspi","rank_he":"טוראי","rank_en":"Private","unit":"Nahal Brigade","unit_branch":"ground","date_of_birth":"2004-02-29","date_of_fall":"2024-07-23","location_name":"Rafah","coordinates":{"lat":31.2960,"lng":34.2620},"city_of_origin":"Tel Aviv","age_at_fall":20,"conflict":"Swords of Iron"},
  {"id":"IDF-091","name_he":"שלום אהרוני","name_en":"Shalom Aharoni","rank_he":"רב סרן","rank_en":"Major","unit":"Golani Brigade","unit_branch":"ground","date_of_birth":"1989-07-11","date_of_fall":"2024-07-27","location_name":"Lebanon Border","coordinates":{"lat":33.0833,"lng":35.1333},"city_of_origin":"Haifa","age_at_fall":35,"conflict":"Swords of Iron"},
  {"id":"IDF-092","name_he":"עמרי שוהם","name_en":"Omri Shoham","rank_he":"סמל","rank_en":"Corporal","unit":"Paratroopers Brigade","unit_branch":"ground","date_of_birth":"2001-05-14","date_of_fall":"2024-08-01","location_name":"Southern Lebanon","coordinates":{"lat":33.1000,"lng":35.1500},"city_of_origin":"Modiin","age_at_fall":23,"conflict":"Swords of Iron"},
  {"id":"IDF-093","name_he":"אבינועם ענבר","name_en":"Avinoam Inbar","rank_he":"רב טוראי","rank_en":"Private First Class","unit":"Kfir Brigade","unit_branch":"ground","date_of_birth":"2002-12-07","date_of_fall":"2024-08-05","location_name":"Lebanon Border","coordinates":{"lat":33.0500,"lng":35.1200},"city_of_origin":"Jerusalem","age_at_fall":21,"conflict":"Swords of Iron"},
  {"id":"IDF-094","name_he":"שי אברגל","name_en":"Shai Avargel","rank_he":"סגן","rank_en":"Lieutenant","unit":"Givati Brigade","unit_branch":"ground","date_of_birth":"1999-08-18","date_of_fall":"2024-08-09","location_name":"Southern Lebanon","coordinates":{"lat":33.1200,"lng":35.1700},"city_of_origin":"Beer Sheva","age_at_fall":24,"conflict":"Swords of Iron"},
  {"id":"IDF-095","name_he":"אריה קרן","name_en":"Arieh Keren","rank_he":"סמל ראשון","rank_en":"Staff Sergeant","unit":"Shayetet 13","unit_branch":"special","date_of_birth":"1997-03-25","date_of_fall":"2024-08-13","location_name":"Lebanon Coast","coordinates":{"lat":33.2700,"lng":35.2100},"city_of_origin":"Tel Aviv","age_at_fall":27,"conflict":"Swords of Iron"},
  {"id":"IDF-096","name_he":"זוהר אגמון","name_en":"Zohar Agmon","rank_he":"טוראי","rank_en":"Private","unit":"Engineering Corps","unit_branch":"ground","date_of_birth":"2003-07-07","date_of_fall":"2024-08-17","location_name":"Lebanon Border","coordinates":{"lat":33.0700,"lng":35.1400},"city_of_origin":"Ramat Gan","age_at_fall":21,"conflict":"Swords of Iron"},
  {"id":"IDF-097","name_he":"שי בר-אל","name_en":"Shai Bar-El","rank_he":"סמל","rank_en":"Corporal","unit":"Armored Corps 401","unit_branch":"ground","date_of_birth":"2001-11-30","date_of_fall":"2024-08-21","location_name":"Southern Lebanon","coordinates":{"lat":33.1400,"lng":35.1900},"city_of_origin":"Netanya","age_at_fall":22,"conflict":"Swords of Iron"},
  {"id":"IDF-098","name_he":"מעיין ישי","name_en":"Maayan Yishai","rank_he":"רב טוראי","rank_en":"Private First Class","unit":"Nahal Brigade","unit_branch":"ground","date_of_birth":"2002-06-17","date_of_fall":"2024-08-25","location_name":"Lebanon Border","coordinates":{"lat":33.0900,"lng":35.1600},"city_of_origin":"Haifa","age_at_fall":22,"conflict":"Swords of Iron"},
  {"id":"IDF-099","name_he":"ביאל מנגיסטו","name_en":"Biyyal Mengistu","rank_he":"סגן משנה","rank_en":"Second Lieutenant","unit":"Golani Brigade","unit_branch":"ground","date_of_birth":"2000-09-04","date_of_fall":"2024-08-29","location_name":"Southern Lebanon","coordinates":{"lat":33.1600,"lng":35.2000},"city_of_origin":"Petah Tikva","age_at_fall":23,"conflict":"Swords of Iron"},
  {"id":"IDF-100","name_he":"יגאל שחם","name_en":"Yigal Shecham","rank_he":"רב סרן","rank_en":"Major","unit":"Paratroopers Brigade","unit_branch":"ground","date_of_birth":"1988-01-15","date_of_fall":"2024-09-03","location_name":"Lebanon Border","coordinates":{"lat":33.0600,"lng":35.1100},"city_of_origin":"Rehovot","age_at_fall":36,"conflict":"Swords of Iron"},
  {"id":"IDF-101","name_he":"אורי ניר","name_en":"Uri Nir","rank_he":"סמל","rank_en":"Corporal","unit":"Givati Brigade","unit_branch":"ground","date_of_birth":"2001-04-09","date_of_fall":"2024-09-07","location_name":"Southern Lebanon","coordinates":{"lat":33.1800,"lng":35.2200},"city_of_origin":"Jerusalem","age_at_fall":23,"conflict":"Swords of Iron"},
  {"id":"IDF-102","name_he":"עמית פינקלשטיין","name_en":"Amit Finkelstein","rank_he":"רב טוראי","rank_en":"Private First Class","unit":"Engineering Corps","unit_branch":"ground","date_of_birth":"2002-08-26","date_of_fall":"2024-09-11","location_name":"Lebanon Border","coordinates":{"lat":33.0400,"lng":35.0900},"city_of_origin":"Tel Aviv","age_at_fall":22,"conflict":"Swords of Iron"},
  {"id":"IDF-103","name_he":"שאול ביינישטיין","name_en":"Shaul Beinstein","rank_he":"סמל ראשון","rank_en":"Staff Sergeant","unit":"Kfir Brigade","unit_branch":"ground","date_of_birth":"1998-11-14","date_of_fall":"2024-09-15","location_name":"Southern Lebanon","coordinates":{"lat":33.2000,"lng":35.2400},"city_of_origin":"Beer Sheva","age_at_fall":25,"conflict":"Swords of Iron"},
  {"id":"IDF-104","name_he":"ליאב מורל","name_en":"Liav Morel","rank_he":"טוראי","rank_en":"Private","unit":"Nahal Brigade","unit_branch":"ground","date_of_birth":"2003-05-20","date_of_fall":"2024-09-19","location_name":"Lebanon Border","coordinates":{"lat":33.0800,"lng":35.1500},"city_of_origin":"Ashdod","age_at_fall":21,"conflict":"Swords of Iron"},
  {"id":"IDF-105","name_he":"ניר אשד","name_en":"Nir Ashed","rank_he":"סגן","rank_en":"Lieutenant","unit":"Sayeret Matkal","unit_branch":"special","date_of_birth":"1999-10-16","date_of_fall":"2024-09-23","location_name":"Beirut Area","coordinates":{"lat":33.7000,"lng":35.5000},"city_of_origin":"Modiin","age_at_fall":24,"conflict":"Swords of Iron"},
  {"id":"IDF-106","name_he":"גרשון בלק","name_en":"Gershon Blak","rank_he":"סמל","rank_en":"Corporal","unit":"Armored Corps 188","unit_branch":"ground","date_of_birth":"2001-02-11","date_of_fall":"2024-09-27","location_name":"Southern Lebanon","coordinates":{"lat":33.1100,"lng":35.1700},"city_of_origin":"Haifa","age_at_fall":23,"conflict":"Swords of Iron"},
  {"id":"IDF-107","name_he":"אייל לוזון","name_en":"Eyal Luzon","rank_he":"רב סרן","rank_en":"Major","unit":"Air Force","unit_branch":"air","date_of_birth":"1992-04-30","date_of_fall":"2024-10-02","location_name":"Lebanon Airspace","coordinates":{"lat":33.3000,"lng":35.4000},"city_of_origin":"Rishon LeZion","age_at_fall":32,"conflict":"Swords of Iron"},
  {"id":"IDF-108","name_he":"דן שפרלינג","name_en":"Dan Schperling","rank_he":"רב טוראי","rank_en":"Private First Class","unit":"Golani Brigade","unit_branch":"ground","date_of_birth":"2002-09-01","date_of_fall":"2024-10-07","location_name":"Southern Lebanon","coordinates":{"lat":33.1300,"lng":35.1800},"city_of_origin":"Tel Aviv","age_at_fall":22,"conflict":"Swords of Iron"},
  {"id":"IDF-109","name_he":"שמעיה גרוסמן","name_en":"Shmaya Grossman","rank_he":"טוראי","rank_en":"Private","unit":"Paratroopers Brigade","unit_branch":"ground","date_of_birth":"2004-03-18","date_of_fall":"2024-10-11","location_name":"Lebanon Border","coordinates":{"lat":33.0300,"lng":35.0800},"city_of_origin":"Petah Tikva","age_at_fall":20,"conflict":"Swords of Iron"},
  {"id":"IDF-110","name_he":"מרדכי כנפו","name_en":"Mordechai Knafo","rank_he":"סמל","rank_en":"Corporal","unit":"Givati Brigade","unit_branch":"ground","date_of_birth":"2001-12-25","date_of_fall":"2024-10-15","location_name":"Southern Lebanon","coordinates":{"lat":33.2200,"lng":35.2600},"city_of_origin":"Rehovot","age_at_fall":22,"conflict":"Swords of Iron"},
  {"id":"IDF-111","name_he":"יצחק שטרן","name_en":"Yitzchak Stern","rank_he":"סמל ראשון","rank_en":"Staff Sergeant","unit":"Engineering Corps","unit_branch":"ground","date_of_birth":"1997-07-21","date_of_fall":"2024-10-19","location_name":"Lebanon Border","coordinates":{"lat":33.0600,"lng":35.1300},"city_of_origin":"Jerusalem","age_at_fall":27,"conflict":"Swords of Iron"},
  {"id":"IDF-112","name_he":"ניסים שלי","name_en":"Nissim Sheli","rank_he":"סגן משנה","rank_en":"Second Lieutenant","unit":"Armored Corps 401","unit_branch":"ground","date_of_birth":"2000-08-07","date_of_fall":"2024-10-24","location_name":"Southern Lebanon","coordinates":{"lat":33.1700,"lng":35.2100},"city_of_origin":"Beer Sheva","age_at_fall":24,"conflict":"Swords of Iron"},
  {"id":"IDF-113","name_he":"גלעד נחמה","name_en":"Gilad Nachama","rank_he":"רב טוראי","rank_en":"Private First Class","unit":"Nahal Brigade","unit_branch":"ground","date_of_birth":"2002-11-12","date_of_fall":"2024-10-28","location_name":"Lebanon Border","coordinates":{"lat":33.0200,"lng":35.0700},"city_of_origin":"Netanya","age_at_fall":22,"conflict":"Swords of Iron"},
  {"id":"IDF-114","name_he":"ראם לבקוביץ","name_en":"Ram Levkowitz","rank_he":"סגן","rank_en":"Lieutenant","unit":"Kfir Brigade","unit_branch":"ground","date_of_birth":"1999-06-14","date_of_fall":"2024-11-02","location_name":"Southern Lebanon","coordinates":{"lat":33.2400,"lng":35.2800},"city_of_origin":"Ramat Gan","age_at_fall":25,"conflict":"Swords of Iron"},
  {"id":"IDF-115","name_he":"בנימין רפאל","name_en":"Binyamin Rafael","rank_he":"רב סרן","rank_en":"Major","unit":"Golani Brigade","unit_branch":"ground","date_of_birth":"1991-02-04","date_of_fall":"2024-11-07","location_name":"Lebanon Border","coordinates":{"lat":33.0800,"lng":35.1600},"city_of_origin":"Holon","age_at_fall":33,"conflict":"Swords of Iron"},
  {"id":"IDF-116","name_he":"צחי לוין","name_en":"Tzachi Levin","rank_he":"סמל","rank_en":"Corporal","unit":"Paratroopers Brigade","unit_branch":"ground","date_of_birth":"2001-07-30","date_of_fall":"2024-11-11","location_name":"Southern Lebanon","coordinates":{"lat":33.1500,"lng":35.2000},"city_of_origin":"Tel Aviv","age_at_fall":23,"conflict":"Swords of Iron"},
  {"id":"IDF-117","name_he":"אביחי זיסמן","name_en":"Avichai Zisman","rank_he":"טוראי","rank_en":"Private","unit":"Givati Brigade","unit_branch":"ground","date_of_birth":"2004-05-08","date_of_fall":"2024-11-15","location_name":"Lebanon Border","coordinates":{"lat":33.0400,"lng":35.1000},"city_of_origin":"Modiin","age_at_fall":20,"conflict":"Swords of Iron"},
  {"id":"IDF-118","name_he":"שי ברמן","name_en":"Shai Berman","rank_he":"סמל ראשון","rank_en":"Staff Sergeant","unit":"Duvdevan Unit","unit_branch":"special","date_of_birth":"1997-09-25","date_of_fall":"2024-11-19","location_name":"Nablus Area","coordinates":{"lat":32.2211,"lng":35.2544},"city_of_origin":"Jerusalem","age_at_fall":27,"conflict":"Swords of Iron"},
  {"id":"IDF-119","name_he":"רועי חיות","name_en":"Roi Hayot","rank_he":"רב טוראי","rank_en":"Private First Class","unit":"Engineering Corps","unit_branch":"ground","date_of_birth":"2002-03-12","date_of_fall":"2024-11-23","location_name":"Southern Lebanon","coordinates":{"lat":33.1900,"lng":35.2300},"city_of_origin":"Beer Sheva","age_at_fall":22,"conflict":"Swords of Iron"},
  {"id":"IDF-120","name_he":"תום שחורי","name_en":"Tom Shahori","rank_he":"סמל","rank_en":"Corporal","unit":"Armored Corps 188","unit_branch":"ground","date_of_birth":"2001-08-19","date_of_fall":"2024-11-27","location_name":"Lebanon Border","coordinates":{"lat":33.0100,"lng":35.0600},"city_of_origin":"Haifa","age_at_fall":23,"conflict":"Swords of Iron"},
  {"id":"IDF-121","name_he":"עמנואל בן-שלום","name_en":"Emanuel Ben-Shalom","rank_he":"סגן","rank_en":"Lieutenant","unit":"Nahal Brigade","unit_branch":"ground","date_of_birth":"1999-11-05","date_of_fall":"2024-12-02","location_name":"Southern Lebanon","coordinates":{"lat":33.2600,"lng":35.3000},"city_of_origin":"Jerusalem","age_at_fall":25,"conflict":"Swords of Iron"},
  {"id":"IDF-122","name_he":"יובל הלפרין","name_en":"Yuval Halperin","rank_he":"רב טוראי","rank_en":"Private First Class","unit":"Golani Brigade","unit_branch":"ground","date_of_birth":"2002-06-23","date_of_fall":"2024-12-06","location_name":"Lebanon Border","coordinates":{"lat":33.0500,"lng":35.1100},"city_of_origin":"Petah Tikva","age_at_fall":22,"conflict":"Swords of Iron"},
  {"id":"IDF-123","name_he":"ידידיה ריינר","name_en":"Yedidya Reiner","rank_he":"טוראי","rank_en":"Private","unit":"Kfir Brigade","unit_branch":"ground","date_of_birth":"2004-01-14","date_of_fall":"2024-12-10","location_name":"Southern Lebanon","coordinates":{"lat":33.1600,"lng":35.2100},"city_of_origin":"Bnei Brak","age_at_fall":20,"conflict":"Swords of Iron"},
  {"id":"IDF-124","name_he":"שלמה בן-שבת","name_en":"Shlomo Ben-Shabbat","rank_he":"רב סרן","rank_en":"Major","unit":"Paratroopers Brigade","unit_branch":"ground","date_of_birth":"1990-10-18","date_of_fall":"2024-12-14","location_name":"Lebanon Border","coordinates":{"lat":33.0700,"lng":35.1400},"city_of_origin":"Tel Aviv","age_at_fall":34,"conflict":"Swords of Iron"},
  {"id":"IDF-125","name_he":"מתן ורנה","name_en":"Matan Varna","rank_he":"סמל","rank_en":"Corporal","unit":"Givati Brigade","unit_branch":"ground","date_of_birth":"2001-09-28","date_of_fall":"2024-12-18","location_name":"Southern Lebanon","coordinates":{"lat":33.2100,"lng":35.2500},"city_of_origin":"Ashdod","age_at_fall":23,"conflict":"Swords of Iron"},
  {"id":"IDF-126","name_he":"יצחק ארז","name_en":"Yitzchak Erez","rank_he":"סמל ראשון","rank_en":"Staff Sergeant","unit":"Engineering Corps","unit_branch":"ground","date_of_birth":"1998-04-16","date_of_fall":"2024-12-22","location_name":"Lebanon Border","coordinates":{"lat":33.0300,"lng":35.0900},"city_of_origin":"Beer Sheva","age_at_fall":26,"conflict":"Swords of Iron"},
  {"id":"IDF-127","name_he":"שחר בן-אריה","name_en":"Shahar Ben-Aryeh","rank_he":"סגן משנה","rank_en":"Second Lieutenant","unit":"Armored Corps 401","unit_branch":"ground","date_of_birth":"2000-07-02","date_of_fall":"2024-12-26","location_name":"Southern Lebanon","coordinates":{"lat":33.1400,"lng":35.1900},"city_of_origin":"Haifa","age_at_fall":24,"conflict":"Swords of Iron"},
  {"id":"IDF-128","name_he":"רועי בקר","name_en":"Roi Baker","rank_he":"רב טוראי","rank_en":"Private First Class","unit":"Nahal Brigade","unit_branch":"ground","date_of_birth":"2002-11-09","date_of_fall":"2025-01-05","location_name":"Lebanon Border","coordinates":{"lat":33.0900,"lng":35.1600},"city_of_origin":"Rehovot","age_at_fall":22,"conflict":"Swords of Iron"},
  {"id":"IDF-129","name_he":"אהרון ביאלה","name_en":"Aharon Byala","rank_he":"סמל","rank_en":"Corporal","unit":"Golani Brigade","unit_branch":"ground","date_of_birth":"2001-03-21","date_of_fall":"2025-01-10","location_name":"Southern Lebanon","coordinates":{"lat":33.1800,"lng":35.2200},"city_of_origin":"Jerusalem","age_at_fall":23,"conflict":"Swords of Iron"},
  {"id":"IDF-130","name_he":"גיל טננבוים","name_en":"Gil Tanenbaum","rank_he":"טוראי","rank_en":"Private","unit":"Paratroopers Brigade","unit_branch":"ground","date_of_birth":"2003-12-16","date_of_fall":"2025-01-15","location_name":"Lebanon Border","coordinates":{"lat":33.0600,"lng":35.1200},"city_of_origin":"Tel Aviv","age_at_fall":21,"conflict":"Swords of Iron"},
  {"id":"IDF-131","name_he":"ישי הרכבי","name_en":"Yishai Harkabi","rank_he":"סגן","rank_en":"Lieutenant","unit":"Kfir Brigade","unit_branch":"ground","date_of_birth":"1999-05-11","date_of_fall":"2025-01-20","location_name":"Southern Lebanon","coordinates":{"lat":33.2000,"lng":35.2400},"city_of_origin":"Netanya","age_at_fall":25,"conflict":"Swords of Iron"},
  {"id":"IDF-132","name_he":"ניצן שושן","name_en":"Nitzan Shoshan","rank_he":"רב סרן","rank_en":"Major","unit":"Givati Brigade","unit_branch":"ground","date_of_birth":"1990-08-07","date_of_fall":"2025-01-25","location_name":"Lebanon Border","coordinates":{"lat":33.0200,"lng":35.0700},"city_of_origin":"Ramat Gan","age_at_fall":34,"conflict":"Swords of Iron"},
  {"id":"IDF-133","name_he":"מוריה שנקר","name_en":"Moriya Shanker","rank_he":"רב טוראי","rank_en":"Private First Class","unit":"Engineering Corps","unit_branch":"ground","date_of_birth":"2002-10-04","date_of_fall":"2025-01-30","location_name":"Southern Lebanon","coordinates":{"lat":33.1200,"lng":35.1800},"city_of_origin":"Beer Sheva","age_at_fall":22,"conflict":"Swords of Iron"},
  {"id":"IDF-134","name_he":"אסף שרביט","name_en":"Assaf Sharbit","rank_he":"סמל","rank_en":"Corporal","unit":"Armored Corps 188","unit_branch":"ground","date_of_birth":"2001-06-28","date_of_fall":"2025-02-05","location_name":"Lebanon Border","coordinates":{"lat":33.0800,"lng":35.1500},"city_of_origin":"Holon","age_at_fall":23,"conflict":"Swords of Iron"},
  {"id":"IDF-135","name_he":"עמית קיסר","name_en":"Amit Kaizer","rank_he":"סגן משנה","rank_en":"Second Lieutenant","unit":"Nahal Brigade","unit_branch":"ground","date_of_birth":"2000-12-14","date_of_fall":"2025-02-10","location_name":"Gaza Strip","coordinates":{"lat":31.4100,"lng":34.3600},"city_of_origin":"Jerusalem","age_at_fall":24,"conflict":"Swords of Iron"},
  {"id":"IDF-136","name_he":"שמחה פרוינד","name_en":"Simcha Freund","rank_he":"טוראי","rank_en":"Private","unit":"Golani Brigade","unit_branch":"ground","date_of_birth":"2004-07-03","date_of_fall":"2025-02-15","location_name":"Gaza City","coordinates":{"lat":31.5000,"lng":34.4500},"city_of_origin":"Petah Tikva","age_at_fall":20,"conflict":"Swords of Iron"},
  {"id":"IDF-137","name_he":"זיו שרון","name_en":"Ziv Sharon","rank_he":"סמל ראשון","rank_en":"Staff Sergeant","unit":"Paratroopers Brigade","unit_branch":"ground","date_of_birth":"1997-04-19","date_of_fall":"2025-02-20","location_name":"Khan Yunis","coordinates":{"lat":31.3400,"lng":34.3000},"city_of_origin":"Tel Aviv","age_at_fall":27,"conflict":"Swords of Iron"},
  {"id":"IDF-138","name_he":"גדי אורן","name_en":"Gadi Oren","rank_he":"רב טוראי","rank_en":"Private First Class","unit":"Kfir Brigade","unit_branch":"ground","date_of_birth":"2002-08-12","date_of_fall":"2025-02-25","location_name":"Rafah","coordinates":{"lat":31.2900,"lng":34.2570},"city_of_origin":"Ashdod","age_at_fall":22,"conflict":"Swords of Iron"},
  {"id":"IDF-139","name_he":"אופיר פלג","name_en":"Ofir Peleg","rank_he":"סמל","rank_en":"Corporal","unit":"Givati Brigade","unit_branch":"ground","date_of_birth":"2001-02-06","date_of_fall":"2025-03-02","location_name":"Gaza Strip","coordinates":{"lat":31.4200,"lng":34.3700},"city_of_origin":"Beer Sheva","age_at_fall":24,"conflict":"Swords of Iron"},
  {"id":"IDF-140","name_he":"יאיר בוסקילה","name_en":"Yair Buskila","rank_he":"רב סרן","rank_en":"Major","unit":"Engineering Corps","unit_branch":"ground","date_of_birth":"1992-11-22","date_of_fall":"2025-03-07","location_name":"Khan Yunis","coordinates":{"lat":31.3450,"lng":34.3040},"city_of_origin":"Rehovot","age_at_fall":32,"conflict":"Swords of Iron"},
  {"id":"IDF-141","name_he":"רועי שדה","name_en":"Roi Sadeh","rank_he":"סגן","rank_en":"Lieutenant","unit":"Armored Corps 401","unit_branch":"ground","date_of_birth":"1999-09-08","date_of_fall":"2025-03-15","location_name":"Gaza City","coordinates":{"lat":31.5100,"lng":34.4600},"city_of_origin":"Haifa","age_at_fall":25,"conflict":"Swords of Iron"},
  {"id":"IDF-142","name_he":"נדב כהן","name_en":"Nadav Cohen","rank_he":"טוראי","rank_en":"Private","unit":"Nahal Brigade","unit_branch":"ground","date_of_birth":"2004-04-25","date_of_fall":"2025-03-22","location_name":"Rafah","coordinates":{"lat":31.2850,"lng":34.2520},"city_of_origin":"Modiin","age_at_fall":20,"conflict":"Swords of Iron"},
  {"id":"IDF-143","name_he":"שי גינת","name_en":"Shai Ginat","rank_he":"סמל ראשון","rank_en":"Staff Sergeant","unit":"Shaldag Unit","unit_branch":"special","date_of_birth":"1997-01-30","date_of_fall":"2025-04-01","location_name":"Central Gaza","coordinates":{"lat":31.4300,"lng":34.3900},"city_of_origin":"Tel Aviv","age_at_fall":28,"conflict":"Swords of Iron"},
  {"id":"IDF-144","name_he":"יובל מיכאלי","name_en":"Yuval Michaeli","rank_he":"רב טוראי","rank_en":"Private First Class","unit":"Golani Brigade","unit_branch":"ground","date_of_birth":"2002-07-16","date_of_fall":"2025-04-10","location_name":"Gaza Strip","coordinates":{"lat":31.4000,"lng":34.3500},"city_of_origin":"Jerusalem","age_at_fall":22,"conflict":"Swords of Iron"},
  {"id":"IDF-145","name_he":"אמיר בורנשטיין","name_en":"Amir Burnstein","rank_he":"סגן משנה","rank_en":"Second Lieutenant","unit":"Paratroopers Brigade","unit_branch":"ground","date_of_birth":"2001-05-19","date_of_fall":"2025-05-02","location_name":"Khan Yunis","coordinates":{"lat":31.3500,"lng":34.3080},"city_of_origin":"Beer Sheva","age_at_fall":24,"conflict":"Swords of Iron"},
  {"id":"IDF-146","name_he":"אלון חסון","name_en":"Alon Hasson","rank_he":"סמל","rank_en":"Corporal","unit":"INS Flotilla 13","unit_branch":"navy","date_of_birth":"2001-10-27","date_of_fall":"2025-06-15","location_name":"Gaza Coast","coordinates":{"lat":31.4800,"lng":34.4100},"city_of_origin":"Eilat","age_at_fall":23,"conflict":"Swords of Iron"},
  {"id":"IDF-147","name_he":"ליאור נבות","name_en":"Lior Navot","rank_he":"רב טוראי","rank_en":"Private First Class","unit":"Givati Brigade","unit_branch":"ground","date_of_birth":"2002-03-14","date_of_fall":"2025-07-20","location_name":"Rafah","coordinates":{"lat":31.2920,"lng":34.2560},"city_of_origin":"Netanya","age_at_fall":23,"conflict":"Swords of Iron"},
  {"id":"IDF-148","name_he":"גיא עוז","name_en":"Guy Oz","rank_he":"סגן","rank_en":"Lieutenant","unit":"Armored Corps 188","unit_branch":"ground","date_of_birth":"1999-12-03","date_of_fall":"2025-09-04","location_name":"Gaza Strip","coordinates":{"lat":31.4500,"lng":34.4000},"city_of_origin":"Tel Aviv","age_at_fall":25,"conflict":"Swords of Iron"},
  {"id":"IDF-149","name_he":"רן שוורץ","name_en":"Ran Schwartz","rank_he":"רב סרן","rank_en":"Major","unit":"Air Force","unit_branch":"air","date_of_birth":"1989-06-11","date_of_fall":"2025-11-18","location_name":"Gaza Airspace","coordinates":{"lat":31.3800,"lng":34.3300},"city_of_origin":"Haifa","age_at_fall":36,"conflict":"Swords of Iron"},
  {"id":"IDF-150","name_he":"עמית ישעיהו","name_en":"Amit Yeshayahu","rank_he":"סמל ראשון","rank_en":"Staff Sergeant","unit":"Golani Brigade","unit_branch":"ground","date_of_birth":"1998-08-05","date_of_fall":"2026-01-12","location_name":"Gaza City","coordinates":{"lat":31.5050,"lng":34.4620},"city_of_origin":"Jerusalem","age_at_fall":27,"conflict":"Swords of Iron","bio_he":"עמית היה לוחם מסור שהוביל את חבריו בגאווה ובאהבה. נפל בקרב אחרון בעזה.","bio_en":"Amit was a dedicated fighter who led his comrades with pride and love. He fell in a final battle in Gaza."}
]
